[
  {
    "code": "1",
    "name": "北九州BP",
    "postal": "800-0206",
    "address": "福岡県北九州市小倉南区葛原東4-6-10",
    "tel": "093-474-1800",
    "is24Hours": true,
    "hasAtm": true,
    "hasDrug": true,
    "latitude": 33.8368089,
    "longitude": 130.932176
  },
  {
    "code": "2",
    "name": "宇美店",
    "postal": "811-2108",
    "address": "福岡県糟屋郡宇美町ゆりが丘1-5-1",
    "tel": "092-934-2700",
    "is24Hours": true,
    "hasAtm": true,
    "hasDrug": false,
    "latitude": 33.5551667,
    "longitude": 130.5289785
  },
  {
    "code": "3",
    "name": "本渡店",
    "postal": "863-0050",
    "address": "熊本県天草市丸尾町6-35",
    "tel": "0969-22-6111",
    "is24Hours": true,
    "hasAtm": false,
    "hasDrug": false,
    "latitude": 32.4690187,
    "longitude": 130.184056
  },
  {
    "code": "4",
    "name": "上津役店",
    "postal": "807-0078",
    "address": "福岡県北九州市八幡西区中の原2-19-1",
    "tel": "093-614-5333",
    "is24Hours": true,
    "hasAtm": true,
    "hasDrug": false,
    "latitude": 33.8305308,
    "longitude": 130.750633
  },
  {
    "code": "5",
    "name": "豊前店",
    "postal": "828-0011",
    "address": "福岡県豊前市大字四郎丸1102-6",
    "tel": "0979-84-0339",
    "is24Hours": true,
    "hasAtm": true,
    "hasDrug": true,
    "latitude": 33.6182753,
    "longitude": 131.0985618
  },
  {
    "code": "6",
    "name": "石田店",
    "postal": "802-0831",
    "address": "福岡県北九州市小倉南区八重洲町5-15",
    "tel": "093-964-8060",
    "is24Hours": false,
    "hasAtm": false,
    "hasDrug": true,
    "latitude": 33.8403026,
    "longitude": 130.8902264
  },
  {
    "code": "7",
    "name": "直方店",
    "postal": "822-0001",
    "address": "福岡県直方市大字感田1967",
    "tel": "0949-26-8889",
    "is24Hours": true,
    "hasAtm": true,
    "hasDrug": false,
    "latitude": 33.7696099,
    "longitude": 130.7339999
  },
  {
    "code": "8",
    "name": "日田店",
    "postal": "877-0078",
    "address": "大分県日田市北友田3-2530-1",
    "tel": "0973-25-6355",
    "is24Hours": true,
    "hasAtm": true,
    "hasDrug": false,
    "latitude": 33.3156262,
    "longitude": 130.8902619
  },
  {
    "code": "9",
    "name": "三重店",
    "postal": "879-7111",
    "address": "大分県豊後大野市三重町赤嶺992",
    "tel": "0974-26-4233",
    "is24Hours": true,
    "hasAtm": true,
    "hasDrug": false,
    "latitude": 32.9867761,
    "longitude": 131.5995785
  },
  {
    "code": "10",
    "name": "宇都宮店",
    "postal": "320-0865",
    "address": "栃木県宇都宮市睦町5-5",
    "tel": "028-614-3933",
    "is24Hours": true,
    "hasAtm": true,
    "hasDrug": true,
    "latitude": 36.5619577,
    "longitude": 139.8629151
  },
  {
    "code": "11",
    "name": "リンドマール店",
    "postal": "863-0017",
    "address": "熊本県天草市船之尾町279-6",
    "tel": "0969-23-1234",
    "is24Hours": true,
    "hasAtm": true,
    "hasDrug": true,
    "latitude": 32.4581589,
    "longitude": 130.1874512
  },
  {
    "code": "12",
    "name": "新宮店",
    "postal": "811-0101",
    "address": "福岡県糟屋郡新宮町大字原上1812-1",
    "tel": "092-940-6660",
    "is24Hours": true,
    "hasAtm": true,
    "hasDrug": false,
    "latitude": 33.6956709,
    "longitude": 130.4493416
  },
  {
    "code": "13",
    "name": "南アルプス店",
    "postal": "400-0306",
    "address": "山梨県南アルプス市小笠原1423-1",
    "tel": "055-280-8880",
    "is24Hours": false,
    "hasAtm": true,
    "hasDrug": true,
    "latitude": 35.6175446,
    "longitude": 138.466521
  },
  {
    "code": "14",
    "name": "宇部店",
    "postal": "755-0036",
    "address": "山口県宇部市北琴芝2-2-45",
    "tel": "0836-29-6806",
    "is24Hours": true,
    "hasAtm": false,
    "hasDrug": true,
    "latitude": 33.9599318,
    "longitude": 131.2579838
  },
  {
    "code": "15",
    "name": "筑後店",
    "postal": "833-0033",
    "address": "福岡県筑後市上北島字井原口1259",
    "tel": "0942-54-7001",
    "is24Hours": true,
    "hasAtm": true,
    "hasDrug": true,
    "latitude": 33.2024517,
    "longitude": 130.492497
  },
  {
    "code": "16",
    "name": "酒々井店",
    "postal": "285-0926",
    "address": "千葉県印旛郡酒々井町本佐倉457-2",
    "tel": "043-481-8088",
    "is24Hours": true,
    "hasAtm": true,
    "hasDrug": true,
    "latitude": 35.7210649,
    "longitude": 140.2569043
  },
  {
    "code": "17",
    "name": "二島店",
    "postal": "808-0109",
    "address": "福岡県北九州市若松区南二島1-4-1",
    "tel": "093-772-0200",
    "is24Hours": true,
    "hasAtm": true,
    "hasDrug": true,
    "latitude": 33.8856394,
    "longitude": 130.7604742
  },
  {
    "code": "18",
    "name": "浜田店",
    "postal": "697-1321",
    "address": "島根県浜田市周布町イ61－1",
    "tel": "0855-24-7980",
    "is24Hours": true,
    "hasAtm": true,
    "hasDrug": true,
    "latitude": 34.8633835,
    "longitude": 132.0242373
  },
  {
    "code": "19",
    "name": "小月店",
    "postal": "750-1162",
    "address": "山口県下関市清末五毛1-4-1",
    "tel": "083-281-2111",
    "is24Hours": false,
    "hasAtm": true,
    "hasDrug": false,
    "latitude": 34.0545607,
    "longitude": 131.0217722
  },
  {
    "code": "20",
    "name": "西港店",
    "postal": "803-0801",
    "address": "福岡県北九州市小倉北区西港町16-16",
    "tel": "093-562-5553",
    "is24Hours": true,
    "hasAtm": true,
    "hasDrug": true,
    "latitude": 33.9005586,
    "longitude": 130.8530671
  },
  {
    "code": "21",
    "name": "飯塚店",
    "postal": "820-0033",
    "address": "福岡県飯塚市徳前40-1",
    "tel": "0948-26-2229",
    "is24Hours": true,
    "hasAtm": true,
    "hasDrug": true,
    "latitude": 33.6319141,
    "longitude": 130.6816753
  },
  {
    "code": "22",
    "name": "上三緒店",
    "postal": "820-0013",
    "address": "福岡県飯塚市上三緒1-7",
    "tel": "0948-26-7676",
    "is24Hours": true,
    "hasAtm": false,
    "hasDrug": false,
    "latitude": 33.6212346,
    "longitude": 130.7182022
  },
  {
    "code": "23",
    "name": "長沼店",
    "postal": "263-0005",
    "address": "千葉県千葉市稲毛区長沼町71番地",
    "tel": "043-216-0160",
    "is24Hours": false,
    "hasAtm": true,
    "hasDrug": true,
    "latitude": 35.6622062,
    "longitude": 140.122952
  },
  {
    "code": "24",
    "name": "粕屋店",
    "postal": "811-2304",
    "address": "福岡県糟屋郡粕屋町大字仲原2706",
    "tel": "092-626-9555",
    "is24Hours": true,
    "hasAtm": true,
    "hasDrug": true,
    "latitude": 33.6095413,
    "longitude": 130.4463478
  },
  {
    "code": "25",
    "name": "北茨城店",
    "postal": "319-1702",
    "address": "茨城県北茨城市大津町2568",
    "tel": "0293-30-4330",
    "is24Hours": true,
    "hasAtm": true,
    "hasDrug": true,
    "latitude": 36.8355994,
    "longitude": 140.7808837
  },
  {
    "code": "26",
    "name": "東篠崎店",
    "postal": "802-0072",
    "address": "福岡県北九州市小倉北区東篠崎3丁目7番",
    "tel": "093-922-5554",
    "is24Hours": false,
    "hasAtm": true,
    "hasDrug": false,
    "latitude": 33.8658466,
    "longitude": 130.8724093
  },
  {
    "code": "27",
    "name": "田川店",
    "postal": "825-0002",
    "address": "福岡県田川市大字伊田4616",
    "tel": "0947-46-2237",
    "is24Hours": true,
    "hasAtm": true,
    "hasDrug": false,
    "latitude": 33.6523952,
    "longitude": 130.8068375
  },
  {
    "code": "28",
    "name": "福岡空港店",
    "postal": "811-2205",
    "address": "福岡県糟屋郡志免町別府2丁目17番20号",
    "tel": "092-937-5678",
    "is24Hours": true,
    "hasAtm": true,
    "hasDrug": true,
    "latitude": 33.602138,
    "longitude": 130.454633
  },
  {
    "code": "29",
    "name": "武庫川店",
    "postal": "663-8137",
    "address": "兵庫県西宮市池開2-28",
    "tel": "0798-40-6787",
    "is24Hours": true,
    "hasAtm": true,
    "hasDrug": true,
    "latitude": 34.7184754,
    "longitude": 135.3769575
  },
  {
    "code": "30",
    "name": "摂津南店",
    "postal": "566-0042",
    "address": "大阪府摂津市東別府3-5-13",
    "tel": "06-4862-8778",
    "is24Hours": false,
    "hasAtm": true,
    "hasDrug": true,
    "latitude": 34.7653667,
    "longitude": 135.5595599
  },
  {
    "code": "31",
    "name": "際波店",
    "postal": "759-0212",
    "address": "山口県宇部市厚南中央二丁目１番２７号",
    "tel": "0836-44-1700",
    "is24Hours": true,
    "hasAtm": true,
    "hasDrug": true,
    "latitude": 33.9948316,
    "longitude": 131.2184526
  },
  {
    "code": "32",
    "name": "門司店",
    "postal": "800-0057",
    "address": "福岡県北九州市門司区大里新町11-6",
    "tel": "093-382-6688",
    "is24Hours": true,
    "hasAtm": true,
    "hasDrug": true,
    "latitude": 33.8954708,
    "longitude": 130.9230711
  },
  {
    "code": "33",
    "name": "伊万里店",
    "postal": "848-0032",
    "address": "佐賀県伊万里市二里町大里甲2455-1",
    "tel": "0955-20-0010",
    "is24Hours": true,
    "hasAtm": true,
    "hasDrug": false,
    "latitude": 33.272171,
    "longitude": 129.8679785
  },
  {
    "code": "34",
    "name": "新下関店",
    "postal": "751-0806",
    "address": "山口県下関市一の宮町1丁目2番27号",
    "tel": "083-263-3855",
    "is24Hours": false,
    "hasAtm": false,
    "hasDrug": false,
    "latitude": 34.0047939,
    "longitude": 130.9451002
  },
  {
    "code": "35",
    "name": "大牟田店",
    "postal": "836-0034",
    "address": "福岡県大牟田市小浜町55番地1",
    "tel": "0944-41-5550",
    "is24Hours": true,
    "hasAtm": true,
    "hasDrug": true,
    "latitude": 33.0292545,
    "longitude": 130.4364221
  },
  {
    "code": "36",
    "name": "東岡山店",
    "postal": "703-8213",
    "address": "岡山県岡山市東区藤井254-1",
    "tel": "086-208-3777",
    "is24Hours": true,
    "hasAtm": true,
    "hasDrug": true,
    "latitude": 34.6887575,
    "longitude": 134.0049692
  },
  {
    "code": "37",
    "name": "寝屋川店",
    "postal": "572-0039",
    "address": "大阪府寝屋川市池田3丁目7-18",
    "tel": "072-801-7176",
    "is24Hours": true,
    "hasAtm": true,
    "hasDrug": true,
    "latitude": 34.7756722,
    "longitude": 135.6130211
  },
  {
    "code": "38",
    "name": "大村店",
    "postal": "856-0814",
    "address": "長崎県大村市松並2丁目92番1",
    "tel": "0957-49-5553",
    "is24Hours": true,
    "hasAtm": true,
    "hasDrug": true,
    "latitude": 32.9241559,
    "longitude": 129.9474685
  },
  {
    "code": "39",
    "name": "甘木店",
    "postal": "838-0031",
    "address": "福岡県朝倉市屋永字西原4272番1",
    "tel": "0946-21-8866",
    "is24Hours": true,
    "hasAtm": false,
    "hasDrug": true,
    "latitude": 33.4061511,
    "longitude": 130.6684328
  },
  {
    "code": "40",
    "name": "みやき店",
    "postal": "849-0111",
    "address": "佐賀県三養基郡みやき町大字白壁5932",
    "tel": "0942-89-6633",
    "is24Hours": true,
    "hasAtm": false,
    "hasDrug": false,
    "latitude": 33.3331476,
    "longitude": 130.4500516
  },
  {
    "code": "41",
    "name": "八千代店",
    "postal": "276-0040",
    "address": "千葉県八千代市緑が丘西2丁目13番地3",
    "tel": "047-480-0039",
    "is24Hours": true,
    "hasAtm": true,
    "hasDrug": true,
    "latitude": 35.7336873,
    "longitude": 140.0726176
  },
  {
    "code": "42",
    "name": "上磯店",
    "postal": "049-0111",
    "address": "北海道北斗市七重浜7丁目14-1",
    "tel": "0138-49-3000",
    "is24Hours": true,
    "hasAtm": false,
    "hasDrug": true,
    "latitude": 41.8207909,
    "longitude": 140.6950824
  },
  {
    "code": "43",
    "name": "厚別店",
    "postal": "004-0064",
    "address": "北海道札幌市厚別区厚別西4条2丁目8-7",
    "tel": "011-891-4456",
    "is24Hours": true,
    "hasAtm": true,
    "hasDrug": true,
    "latitude": 43.0514685,
    "longitude": 141.4551779
  },
  {
    "code": "44",
    "name": "手稲店",
    "postal": "006-0815",
    "address": "北海道札幌市手稲区前田5条13丁目3-1",
    "tel": "011-685-1212",
    "is24Hours": false,
    "hasAtm": true,
    "hasDrug": true,
    "latitude": 43.1280887,
    "longitude": 141.2471374
  },
  {
    "code": "45",
    "name": "伏古店",
    "postal": "007-0873",
    "address": "北海道札幌市東区伏古13条3丁目21-1",
    "tel": "011-783-6161",
    "is24Hours": true,
    "hasAtm": true,
    "hasDrug": true,
    "latitude": 43.1015691,
    "longitude": 141.4031445
  },
  {
    "code": "46",
    "name": "久留米店",
    "postal": "839-0841",
    "address": "福岡県久留米市御井旗崎4丁目1-1",
    "tel": "0942-40-8811",
    "is24Hours": true,
    "hasAtm": true,
    "hasDrug": true,
    "latitude": 33.3167642,
    "longitude": 130.5619621
  },
  {
    "code": "47",
    "name": "八代店",
    "postal": "866-0032",
    "address": "熊本県八代市新開町3-15",
    "tel": "0965-31-1118",
    "is24Hours": true,
    "hasAtm": true,
    "hasDrug": false,
    "latitude": 32.5084397,
    "longitude": 130.5788978
  },
  {
    "code": "48",
    "name": "防府店",
    "postal": "747-0833",
    "address": "山口県防府市大字浜方19番地1",
    "tel": "0835-26-3113",
    "is24Hours": true,
    "hasAtm": true,
    "hasDrug": true,
    "latitude": 34.0267377,
    "longitude": 131.5741455
  },
  {
    "code": "49",
    "name": "わさだ店",
    "postal": "870-1152",
    "address": "大分県大分市上宗方南2丁目1番7号",
    "tel": "097-588-8350",
    "is24Hours": false,
    "hasAtm": true,
    "hasDrug": false,
    "latitude": 33.1944556,
    "longitude": 131.5752139
  },
  {
    "code": "50",
    "name": "別府店",
    "postal": "874-0841",
    "address": "大分県別府市竹の内12組",
    "tel": "0977-27-1166",
    "is24Hours": true,
    "hasAtm": true,
    "hasDrug": true,
    "latitude": 33.3031751,
    "longitude": 131.4621613
  },
  {
    "code": "51",
    "name": "八女店",
    "postal": "834-0064",
    "address": "福岡県八女市蒲原字五反田848",
    "tel": "0943-30-1666",
    "is24Hours": true,
    "hasAtm": true,
    "hasDrug": false,
    "latitude": 33.2162341,
    "longitude": 130.5402412
  },
  {
    "code": "52",
    "name": "上峰店",
    "postal": "849-0123",
    "address": "佐賀県三養基郡上峰町大字坊所字七本谷1581-2",
    "tel": "0952-55-6868",
    "is24Hours": true,
    "hasAtm": true,
    "hasDrug": true,
    "latitude": 33.3317745,
    "longitude": 130.4142619
  },
  {
    "code": "53",
    "name": "野幌店",
    "postal": "069-0824",
    "address": "北海道江別市東野幌本町7番70",
    "tel": "011-381-8080",
    "is24Hours": true,
    "hasAtm": true,
    "hasDrug": true,
    "latitude": 43.0897141,
    "longitude": 141.5306346
  },
  {
    "code": "54",
    "name": "中津店",
    "postal": "871-0011",
    "address": "大分県中津市大字下池永字熊本153番地1",
    "tel": "0979-26-1188",
    "is24Hours": false,
    "hasAtm": false,
    "hasDrug": true,
    "latitude": 33.5873336,
    "longitude": 131.2116479
  },
  {
    "code": "55",
    "name": "牛深店",
    "postal": "863-1902",
    "address": "熊本県天草市久玉町新久玉5711－36",
    "tel": "0969-73-3271",
    "is24Hours": true,
    "hasAtm": true,
    "hasDrug": true,
    "latitude": 32.2082301,
    "longitude": 130.0269566
  },
  {
    "code": "56",
    "name": "甲府昭和店",
    "postal": "409-3866",
    "address": "山梨県中巨摩郡昭和町西条1126番地",
    "tel": "055-268-7722",
    "is24Hours": true,
    "hasAtm": true,
    "hasDrug": true,
    "latitude": 35.6334165,
    "longitude": 138.5404588
  },
  {
    "code": "57",
    "name": "神楽店",
    "postal": "070-8004",
    "address": "北海道旭川市神楽4条12丁目12-15",
    "tel": "0166-63-6611",
    "is24Hours": false,
    "hasAtm": true,
    "hasDrug": true,
    "latitude": 43.7495189,
    "longitude": 142.3579657
  },
  {
    "code": "58",
    "name": "八幡宿店",
    "postal": "290-0067",
    "address": "千葉県市原市八幡海岸通1971－1",
    "tel": "0436-42-6655",
    "is24Hours": false,
    "hasAtm": true,
    "hasDrug": true,
    "latitude": 35.5431301,
    "longitude": 140.0917723
  },
  {
    "code": "59",
    "name": "三日月店",
    "postal": "845-0033",
    "address": "佐賀県小城市三日月町樋口字五条1420番地",
    "tel": "0952-73-4444",
    "is24Hours": true,
    "hasAtm": true,
    "hasDrug": true,
    "latitude": 33.2629454,
    "longitude": 130.2256345
  },
  {
    "code": "60",
    "name": "小見川店",
    "postal": "289-0305",
    "address": "千葉県香取市分郷218－1",
    "tel": "0478-80-1800",
    "is24Hours": true,
    "hasAtm": true,
    "hasDrug": false,
    "latitude": 35.8599888,
    "longitude": 140.5972091
  },
  {
    "code": "61",
    "name": "水巻店",
    "postal": "807-0022",
    "address": "福岡県遠賀郡水巻町頃末北4丁目4－8",
    "tel": "093-203-5558",
    "is24Hours": true,
    "hasAtm": false,
    "hasDrug": true,
    "latitude": 33.8612136,
    "longitude": 130.6949976
  },
  {
    "code": "62",
    "name": "遠賀店",
    "postal": "811-4342",
    "address": "福岡県遠賀郡遠賀町大字尾崎字上ノ越1607番1",
    "tel": "093-291-2700",
    "is24Hours": true,
    "hasAtm": true,
    "hasDrug": true,
    "latitude": 33.8508477,
    "longitude": 130.648772
  },
  {
    "code": "63",
    "name": "那須塩原店",
    "postal": "325-0023",
    "address": "栃木県那須塩原市豊浦12番地１",
    "tel": "0287-73-0250",
    "is24Hours": true,
    "hasAtm": true,
    "hasDrug": true,
    "latitude": 36.9545264,
    "longitude": 140.0520383
  },
  {
    "code": "64",
    "name": "藤沢羽鳥店",
    "postal": "251-0056",
    "address": "神奈川県藤沢市羽鳥5丁目13番地12号",
    "tel": "0466-31-2288",
    "is24Hours": true,
    "hasAtm": true,
    "hasDrug": true,
    "latitude": 35.346656,
    "longitude": 139.4657803
  },
  {
    "code": "65",
    "name": "宝来店",
    "postal": "631-0845",
    "address": "奈良県奈良市宝来3丁目11-9",
    "tel": "0742-53-7708",
    "is24Hours": false,
    "hasAtm": true,
    "hasDrug": true,
    "latitude": 34.6834361,
    "longitude": 135.7746826
  },
  {
    "code": "66",
    "name": "宇土店",
    "postal": "869-0418",
    "address": "熊本県宇土市善道寺町綾織22－1",
    "tel": "0964-24-5188",
    "is24Hours": true,
    "hasAtm": true,
    "hasDrug": true,
    "latitude": 32.6792629,
    "longitude": 130.6722066
  },
  {
    "code": "67",
    "name": "北美原店",
    "postal": "041-0807",
    "address": "北海道函館市北美原1丁目5番1号",
    "tel": "0138-34-6850",
    "is24Hours": true,
    "hasAtm": true,
    "hasDrug": true,
    "latitude": 41.8273918,
    "longitude": 140.7459237
  },
  {
    "code": "68",
    "name": "笠懸店",
    "postal": "379-2313",
    "address": "群馬県みどり市笠懸町鹿4367番地5",
    "tel": "0277-40-5510",
    "is24Hours": true,
    "hasAtm": false,
    "hasDrug": false,
    "latitude": 36.3875642,
    "longitude": 139.2721523
  },
  {
    "code": "69",
    "name": "琴浦店",
    "postal": "689-2304",
    "address": "鳥取県東伯郡琴浦町大字逢束1273",
    "tel": "0858-52-6655",
    "is24Hours": true,
    "hasAtm": true,
    "hasDrug": true,
    "latitude": 35.5034574,
    "longitude": 133.696325
  },
  {
    "code": "70",
    "name": "宗像店",
    "postal": "811-3406",
    "address": "福岡県宗像市稲元２丁目３-１",
    "tel": "0940-39-2555",
    "is24Hours": true,
    "hasAtm": true,
    "hasDrug": true,
    "latitude": 33.8085141,
    "longitude": 130.5479885
  },
  {
    "code": "71",
    "name": "永山店",
    "postal": "079-8413",
    "address": "北海道旭川市永山三条4丁目1番3号",
    "tel": "0166-49-5015",
    "is24Hours": true,
    "hasAtm": true,
    "hasDrug": true,
    "latitude": 43.7898883,
    "longitude": 142.4017148
  },
  {
    "code": "72",
    "name": "佐世保大和店",
    "postal": "857-1165",
    "address": "長崎県佐世保市大和町65-2",
    "tel": "0956-46-7700",
    "is24Hours": false,
    "hasAtm": true,
    "hasDrug": true,
    "latitude": 33.1556926,
    "longitude": 129.7485494
  },
  {
    "code": "73",
    "name": "騎西店",
    "postal": "347-0104",
    "address": "埼玉県加須市根古屋648-1",
    "tel": "0480-70-1155",
    "is24Hours": true,
    "hasAtm": true,
    "hasDrug": true,
    "latitude": 36.1003238,
    "longitude": 139.5833963
  },
  {
    "code": "74",
    "name": "益浦店",
    "postal": "085-0803",
    "address": "北海道釧路市益浦1丁目10-7",
    "tel": "0154-92-3555",
    "is24Hours": true,
    "hasAtm": true,
    "hasDrug": true,
    "latitude": 42.9566207,
    "longitude": 144.4275293
  },
  {
    "code": "75",
    "name": "別保店",
    "postal": "088-0605",
    "address": "北海道釧路郡釧路町字別保原野南二十五線54番地1",
    "tel": "0154-40-6611",
    "is24Hours": true,
    "hasAtm": false,
    "hasDrug": true,
    "latitude": 42.9963859,
    "longitude": 144.4321434
  },
  {
    "code": "76",
    "name": "行橋店",
    "postal": "824-0033",
    "address": "福岡県行橋市北泉4丁目36番13",
    "tel": "0930-26-0555",
    "is24Hours": true,
    "hasAtm": true,
    "hasDrug": true,
    "latitude": 33.7142869,
    "longitude": 130.987906
  },
  {
    "code": "77",
    "name": "西花輪店",
    "postal": "409-3843",
    "address": "山梨県中央市西花輪字古宮4424-8",
    "tel": "055-278-5577",
    "is24Hours": true,
    "hasAtm": true,
    "hasDrug": true,
    "latitude": 35.5947404,
    "longitude": 138.519899
  },
  {
    "code": "78",
    "name": "松江店",
    "postal": "690-0031",
    "address": "島根県松江市山代町1005番",
    "tel": "0852-60-1351",
    "is24Hours": true,
    "hasAtm": true,
    "hasDrug": true,
    "latitude": 35.4442731,
    "longitude": 133.0839534
  },
  {
    "code": "79",
    "name": "江別大麻店",
    "postal": "069-0852",
    "address": "北海道江別市大麻東町13-11",
    "tel": "011-388-7007",
    "is24Hours": false,
    "hasAtm": true,
    "hasDrug": false,
    "latitude": 43.0796426,
    "longitude": 141.4984329
  },
  {
    "code": "80",
    "name": "筑西店",
    "postal": "308-0847",
    "address": "茨城県筑西市玉戸1086-5",
    "tel": "0296-26-7001",
    "is24Hours": false,
    "hasAtm": true,
    "hasDrug": true,
    "latitude": 36.294449,
    "longitude": 139.9307703
  },
  {
    "code": "81",
    "name": "小林店",
    "postal": "886-0003",
    "address": "宮崎県小林市堤字西ノ原2907番1",
    "tel": "0984-24-5505",
    "is24Hours": true,
    "hasAtm": true,
    "hasDrug": true,
    "latitude": 31.983351,
    "longitude": 130.9912558
  },
  {
    "code": "82",
    "name": "下松店",
    "postal": "744-0074",
    "address": "山口県下松市潮音町1丁目16番20号",
    "tel": "0833-45-2221",
    "is24Hours": true,
    "hasAtm": false,
    "hasDrug": true,
    "latitude": 34.0157577,
    "longitude": 131.8523497
  },
  {
    "code": "83",
    "name": "大成店",
    "postal": "053-0806",
    "address": "北海道苫小牧市大成町1丁目1番2号",
    "tel": "0144-71-7227",
    "is24Hours": true,
    "hasAtm": true,
    "hasDrug": true,
    "latitude": 42.6267162,
    "longitude": 141.5761294
  },
  {
    "code": "84",
    "name": "小山店",
    "postal": "323-0014",
    "address": "栃木県小山市喜沢649番地2",
    "tel": "0285-20-5277",
    "is24Hours": false,
    "hasAtm": true,
    "hasDrug": true,
    "latitude": 36.3471952,
    "longitude": 139.8215531
  },
  {
    "code": "85",
    "name": "三股店",
    "postal": "889-1901",
    "address": "宮崎県北諸県郡三股町大字樺山4834番3",
    "tel": "0986-53-3830",
    "is24Hours": true,
    "hasAtm": true,
    "hasDrug": true,
    "latitude": 31.7343006,
    "longitude": 131.1049607
  },
  {
    "code": "86",
    "name": "和泉店",
    "postal": "594-0053",
    "address": "大阪府和泉市芦部町86番1",
    "tel": "0725-40-6657",
    "is24Hours": true,
    "hasAtm": true,
    "hasDrug": true,
    "latitude": 34.4772799,
    "longitude": 135.4441292
  },
  {
    "code": "87",
    "name": "田川後藤寺店",
    "postal": "826-0044",
    "address": "福岡県田川市位登1751番2",
    "tel": "0947-49-3311",
    "is24Hours": true,
    "hasAtm": true,
    "hasDrug": true,
    "latitude": 33.6200423,
    "longitude": 130.7886632
  },
  {
    "code": "88",
    "name": "半田亀崎店",
    "postal": "475-0023",
    "address": "愛知県半田市亀崎町９丁目１１７番",
    "tel": "0569-20-0070",
    "is24Hours": true,
    "hasAtm": false,
    "hasDrug": true,
    "latitude": 34.9129962,
    "longitude": 136.9626886
  },
  {
    "code": "89",
    "name": "大和小泉店",
    "postal": "639-1044",
    "address": "奈良県大和郡山市小泉町東３丁目１０番２",
    "tel": "0743-59-3054",
    "is24Hours": true,
    "hasAtm": false,
    "hasDrug": true,
    "latitude": 34.6196035,
    "longitude": 135.7633465
  },
  {
    "code": "90",
    "name": "八幡東田店",
    "postal": "805-0071",
    "address": "福岡県北九州市八幡東区東田1丁目5番9号",
    "tel": "093-663-8500",
    "is24Hours": true,
    "hasAtm": false,
    "hasDrug": false,
    "latitude": 33.8732462,
    "longitude": 130.7954962
  },
  {
    "code": "91",
    "name": "宮崎恒久店",
    "postal": "880-0916",
    "address": "宮崎県宮崎市大字恒久1527番1",
    "tel": "0985-63-3330",
    "is24Hours": true,
    "hasAtm": true,
    "hasDrug": true,
    "latitude": 31.8887816,
    "longitude": 131.423317
  },
  {
    "code": "92",
    "name": "水沢上姉体店",
    "postal": "023-0833",
    "address": "岩手県奥州市水沢上姉体3丁目2-1",
    "tel": "0197-26-5205",
    "is24Hours": false,
    "hasAtm": true,
    "hasDrug": true,
    "latitude": 39.1160957,
    "longitude": 141.1608763
  },
  {
    "code": "93",
    "name": "盛岡西バイパス店",
    "postal": "020-0851",
    "address": "岩手県盛岡市向中野7丁目17番45号",
    "tel": "019-656-5701",
    "is24Hours": true,
    "hasAtm": true,
    "hasDrug": true,
    "latitude": 39.6735273,
    "longitude": 141.1362202
  },
  {
    "code": "94",
    "name": "鳥取千代水店",
    "postal": "680-0911",
    "address": "鳥取県鳥取市千代水4丁目27番地",
    "tel": "0857-38-8877",
    "is24Hours": true,
    "hasAtm": true,
    "hasDrug": true,
    "latitude": 35.516433,
    "longitude": 134.192682
  },
  {
    "code": "95",
    "name": "四日市富田店",
    "postal": "510-8027",
    "address": "三重県四日市市大字茂福771番1",
    "tel": "059-361-2223",
    "is24Hours": false,
    "hasAtm": true,
    "hasDrug": false,
    "latitude": 35.006622,
    "longitude": 136.6429517
  },
  {
    "code": "96",
    "name": "久留米上津店",
    "postal": "830-0052",
    "address": "福岡県久留米市上津町1654番1",
    "tel": "0942-51-2200",
    "is24Hours": true,
    "hasAtm": true,
    "hasDrug": true,
    "latitude": 33.282799,
    "longitude": 130.5341865
  },
  {
    "code": "97",
    "name": "サイオス入間店",
    "postal": "358-0003",
    "address": "埼玉県入間市豊岡二丁目1番1号",
    "tel": "04-2901-2112",
    "is24Hours": true,
    "hasAtm": true,
    "hasDrug": true,
    "latitude": 35.8360325,
    "longitude": 139.3866212
  },
  {
    "code": "98",
    "name": "滋賀大津店",
    "postal": "520-2142",
    "address": "滋賀県大津市玉野浦10番1号",
    "tel": "077-548-3661",
    "is24Hours": false,
    "hasAtm": true,
    "hasDrug": false,
    "latitude": 34.9811794,
    "longitude": 135.9089224
  },
  {
    "code": "99",
    "name": "周南店",
    "postal": "746-0022",
    "address": "山口県周南市野村三丁目17番1号",
    "tel": "0834-61-0877",
    "is24Hours": true,
    "hasAtm": false,
    "hasDrug": true,
    "latitude": 34.0645316,
    "longitude": 131.7781967
  },
  {
    "code": "100",
    "name": "松阪店",
    "postal": "515-0012",
    "address": "三重県松阪市東町59番地6",
    "tel": "0598-50-1166",
    "is24Hours": true,
    "hasAtm": true,
    "hasDrug": true,
    "latitude": 34.5770398,
    "longitude": 136.5499431
  },
  {
    "code": "101",
    "name": "門司片上海岸店",
    "postal": "800-0061",
    "address": "福岡県北九州市門司区片上海岸6番21号",
    "tel": "093-322-5544",
    "is24Hours": true,
    "hasAtm": true,
    "hasDrug": true,
    "latitude": 33.92778,
    "longitude": 130.9422461
  },
  {
    "code": "102",
    "name": "小竹店",
    "postal": "820-1103",
    "address": "福岡県鞍手郡小竹町勝野1532番13",
    "tel": "09496-6-1122",
    "is24Hours": true,
    "hasAtm": true,
    "hasDrug": true,
    "latitude": 33.700617,
    "longitude": 130.7049541
  },
  {
    "code": "103",
    "name": "二色浜店",
    "postal": "597-0062",
    "address": "大阪府貝塚市澤890番1",
    "tel": "072-433-6200",
    "is24Hours": true,
    "hasAtm": true,
    "hasDrug": true,
    "latitude": 34.438825,
    "longitude": 135.3380558
  },
  {
    "code": "104",
    "name": "笠間店",
    "postal": "309-1717",
    "address": "茨城県笠間市旭町430番1",
    "tel": "0296-71-2161",
    "is24Hours": false,
    "hasAtm": true,
    "hasDrug": true,
    "latitude": 36.3291317,
    "longitude": 140.3232006
  },
  {
    "code": "105",
    "name": "苅田店",
    "postal": "800-0314",
    "address": "福岡県京都郡苅田町幸町5-1",
    "tel": "093-435-0880",
    "is24Hours": true,
    "hasAtm": true,
    "hasDrug": false,
    "latitude": 33.7905138,
    "longitude": 130.9845421
  },
  {
    "code": "106",
    "name": "苫小牧東店",
    "postal": "053-0053",
    "address": "北海道苫小牧市柳町1丁目6番9号",
    "tel": "0144-52-5577",
    "is24Hours": true,
    "hasAtm": false,
    "hasDrug": false,
    "latitude": 42.6630424,
    "longitude": 141.6586312
  },
  {
    "code": "107",
    "name": "千歳清流店",
    "postal": "066-0081",
    "address": "北海道千歳市清流2丁目4番5号",
    "tel": "0123-49-2060",
    "is24Hours": true,
    "hasAtm": true,
    "hasDrug": true,
    "latitude": 42.8449576,
    "longitude": 141.6624049
  },
  {
    "code": "108",
    "name": "登別栄町店",
    "postal": "059-0033",
    "address": "北海道登別市栄町4丁目28番地1",
    "tel": "0143-82-2220",
    "is24Hours": true,
    "hasAtm": true,
    "hasDrug": true,
    "latitude": 42.3788137,
    "longitude": 141.0721366
  },
  {
    "code": "109",
    "name": "りんくうタウン店",
    "postal": "598-0048",
    "address": "大阪府泉佐野市りんくう往来北１番地の１０",
    "tel": "072-458-3288",
    "is24Hours": true,
    "hasAtm": true,
    "hasDrug": false,
    "latitude": 34.4126083,
    "longitude": 135.2987925
  },
  {
    "code": "110",
    "name": "下郡店",
    "postal": "870-0952",
    "address": "大分県大分市下郡北一丁目２番６０号",
    "tel": "097-554-8806",
    "is24Hours": false,
    "hasAtm": true,
    "hasDrug": true,
    "latitude": 33.2290293,
    "longitude": 131.6257026
  },
  {
    "code": "111",
    "name": "米子大谷店",
    "postal": "683-0045",
    "address": "鳥取県米子市大谷町２８番地",
    "tel": "0859-36-0600",
    "is24Hours": true,
    "hasAtm": true,
    "hasDrug": true,
    "latitude": 35.4188423,
    "longitude": 133.333172
  },
  {
    "code": "112",
    "name": "手稲星置店",
    "postal": "006-0853",
    "address": "北海道札幌市手稲区星置３条1丁目１番１号",
    "tel": "011-686-8686",
    "is24Hours": true,
    "hasAtm": true,
    "hasDrug": true,
    "latitude": 43.1381322,
    "longitude": 141.2212123
  },
  {
    "code": "113",
    "name": "岩見沢店",
    "postal": "068-0015",
    "address": "北海道岩見沢市東町６７８番地５",
    "tel": "0126-31-0060",
    "is24Hours": true,
    "hasAtm": true,
    "hasDrug": true,
    "latitude": 43.2265681,
    "longitude": 141.7932895
  },
  {
    "code": "114",
    "name": "安八店",
    "postal": "503-0117",
    "address": "岐阜県安八郡安八町大明神１８７番地１",
    "tel": "0584-63-0020",
    "is24Hours": true,
    "hasAtm": true,
    "hasDrug": true,
    "latitude": 35.3363096,
    "longitude": 136.6600119
  },
  {
    "code": "115",
    "name": "北見中ノ島店",
    "postal": "090-0813",
    "address": "北海道北見市中ノ島町　２丁目２番１３号",
    "tel": "0157-66-2060",
    "is24Hours": true,
    "hasAtm": true,
    "hasDrug": true,
    "latitude": 43.7940715,
    "longitude": 143.8941946
  },
  {
    "code": "116",
    "name": "つくば学園都市店",
    "postal": "305-0816",
    "address": "茨城県つくば市学園の森三丁目１２番地６",
    "tel": "029-860-5301",
    "is24Hours": true,
    "hasAtm": true,
    "hasDrug": false,
    "latitude": 36.0961472,
    "longitude": 140.0855033
  },
  {
    "code": "117",
    "name": "釧路川端店",
    "postal": "085-0044",
    "address": "北海道釧路市川端町１番７号",
    "tel": "0154-21-5125",
    "is24Hours": false,
    "hasAtm": true,
    "hasDrug": true,
    "latitude": 43.0008112,
    "longitude": 144.3637768
  },
  {
    "code": "118",
    "name": "姫路店",
    "postal": "671-0222",
    "address": "兵庫県姫路市別所町小林346番地",
    "tel": "079-251-1222",
    "is24Hours": true,
    "hasAtm": true,
    "hasDrug": true,
    "latitude": 34.8001657,
    "longitude": 134.7617255
  },
  {
    "code": "119",
    "name": "大竹店",
    "postal": "739-0622",
    "address": "広島県大竹市晴海2丁目10番地48",
    "tel": "0827-59-1100",
    "is24Hours": true,
    "hasAtm": true,
    "hasDrug": true,
    "latitude": 34.2421182,
    "longitude": 132.2254238
  },
  {
    "code": "120",
    "name": "八戸店",
    "postal": "031-0022",
    "address": "青森県八戸市大字糠塚字狐森１８番地１0",
    "tel": "0178-71-1620",
    "is24Hours": true,
    "hasAtm": false,
    "hasDrug": false,
    "latitude": 40.4897564,
    "longitude": 141.4779556
  },
  {
    "code": "121",
    "name": "諫早店",
    "postal": "854-0036",
    "address": "長崎県諫早市長野町1690番8",
    "tel": "0957-35-6600",
    "is24Hours": false,
    "hasAtm": true,
    "hasDrug": true,
    "latitude": 32.8303503,
    "longitude": 130.081413
  },
  {
    "code": "122",
    "name": "東九条店",
    "postal": "630-8144",
    "address": "奈良県奈良市東九条町１６７－１",
    "tel": "0742-50-5561",
    "is24Hours": true,
    "hasAtm": true,
    "hasDrug": false,
    "latitude": 34.6549488,
    "longitude": 135.816754
  },
  {
    "code": "123",
    "name": "出雲斐川店",
    "postal": "699-0631",
    "address": "島根県出雲市斐川町直江5135-1",
    "tel": "0853-73-7725",
    "is24Hours": true,
    "hasAtm": true,
    "hasDrug": true,
    "latitude": 35.3895253,
    "longitude": 132.8260785
  },
  {
    "code": "124",
    "name": "玉垣店",
    "postal": "513-0816",
    "address": "三重県鈴鹿市南玉垣町５２００",
    "tel": "059-382-5105",
    "is24Hours": false,
    "hasAtm": true,
    "hasDrug": true,
    "latitude": 34.8565343,
    "longitude": 136.5866361
  },
  {
    "code": "125",
    "name": "八街店",
    "postal": "289-1115",
    "address": "千葉県八街市八街ほ743番地1",
    "tel": "043-440-0061",
    "is24Hours": true,
    "hasAtm": true,
    "hasDrug": true,
    "latitude": 35.6557701,
    "longitude": 140.3035335
  },
  {
    "code": "126",
    "name": "津藤方店",
    "postal": "514-0815",
    "address": "三重県津市藤方571番地１",
    "tel": "059-213-2051",
    "is24Hours": true,
    "hasAtm": true,
    "hasDrug": true,
    "latitude": 34.6820889,
    "longitude": 136.5148424
  },
  {
    "code": "127",
    "name": "北上店",
    "postal": "024-0004",
    "address": "岩手県北上市村崎野22地割135番地3",
    "tel": "0197-68-3522",
    "is24Hours": true,
    "hasAtm": true,
    "hasDrug": false,
    "latitude": 39.3341188,
    "longitude": 141.1088185
  },
  {
    "code": "128",
    "name": "東開店",
    "postal": "891-0115",
    "address": "鹿児島県鹿児島市東開町３番地１６",
    "tel": "099-268-6661",
    "is24Hours": false,
    "hasAtm": true,
    "hasDrug": true,
    "latitude": 31.5264723,
    "longitude": 130.5313053
  },
  {
    "code": "129",
    "name": "島原店",
    "postal": "855-0031",
    "address": "長崎県島原市前浜町丙　227番地",
    "tel": "0957-63-2151",
    "is24Hours": true,
    "hasAtm": true,
    "hasDrug": true,
    "latitude": 32.8078845,
    "longitude": 130.3576475
  },
  {
    "code": "130",
    "name": "旭川口店",
    "postal": "289-2535",
    "address": "千葉県旭市川口3435番地１",
    "tel": "0479-62-6106",
    "is24Hours": true,
    "hasAtm": true,
    "hasDrug": true,
    "latitude": 35.7150704,
    "longitude": 140.5844318
  },
  {
    "code": "131",
    "name": "境港店",
    "postal": "684-0076",
    "address": "鳥取県境港市 夕日ヶ丘2丁目 8番地",
    "tel": "0859-47-5550",
    "is24Hours": true,
    "hasAtm": false,
    "hasDrug": true,
    "latitude": 35.5088139,
    "longitude": 133.2211079
  },
  {
    "code": "132",
    "name": "彦根松原店",
    "postal": "522-0002",
    "address": "滋賀県彦根市松原町1904番地3",
    "tel": "0749-27-5533",
    "is24Hours": true,
    "hasAtm": true,
    "hasDrug": false,
    "latitude": 35.2782128,
    "longitude": 136.2583365
  },
  {
    "code": "133",
    "name": "唐津中原店",
    "postal": "847-0031",
    "address": "佐賀県唐津市原1421",
    "tel": "0955-77-6677",
    "is24Hours": false,
    "hasAtm": true,
    "hasDrug": true,
    "latitude": 33.4149596,
    "longitude": 129.9936443
  },
  {
    "code": "134",
    "name": "宇部中央店",
    "postal": "755-0045",
    "address": "山口県宇部市中央町3丁目16-20",
    "tel": "0836-37-0051",
    "is24Hours": true,
    "hasAtm": true,
    "hasDrug": true,
    "latitude": 33.9546894,
    "longitude": 131.2390856
  },
  {
    "code": "135",
    "name": "鞍手店",
    "postal": "807-1311",
    "address": "福岡県鞍手郡鞍手町小牧2232-5",
    "tel": "0949-42-5000",
    "is24Hours": true,
    "hasAtm": true,
    "hasDrug": false,
    "latitude": 33.7936697,
    "longitude": 130.6894179
  },
  {
    "code": "136",
    "name": "大刀洗店",
    "postal": "830-1224",
    "address": "福岡県三井郡大刀洗町鵜木1440番地33",
    "tel": "0942-77-5577",
    "is24Hours": true,
    "hasAtm": true,
    "hasDrug": true,
    "latitude": 33.4010679,
    "longitude": 130.595414
  },
  {
    "code": "137",
    "name": "名取店",
    "postal": "981-1221",
    "address": "宮城県名取市田高字原174番地",
    "tel": "022-381-5266",
    "is24Hours": true,
    "hasAtm": true,
    "hasDrug": true,
    "latitude": 38.1788837,
    "longitude": 140.8736861
  },
  {
    "code": "138",
    "name": "彦根店",
    "postal": "522-0223",
    "address": "滋賀県彦根市川瀬馬場町220番地",
    "tel": "0749-28-7706",
    "is24Hours": false,
    "hasAtm": true,
    "hasDrug": true,
    "latitude": 35.2248405,
    "longitude": 136.2393541
  },
  {
    "code": "139",
    "name": "石下店",
    "postal": "300-2707",
    "address": "茨城県常総市本石下4421番地1",
    "tel": "0297-30-8003",
    "is24Hours": true,
    "hasAtm": true,
    "hasDrug": true,
    "latitude": 36.1202376,
    "longitude": 139.9750234
  },
  {
    "code": "140",
    "name": "那珂川店",
    "postal": "811-1215",
    "address": "福岡県那珂川市松原5番23号",
    "tel": "092-951-3335",
    "is24Hours": true,
    "hasAtm": true,
    "hasDrug": true,
    "latitude": 33.5075925,
    "longitude": 130.4386658
  },
  {
    "code": "141",
    "name": "出雲白枝店",
    "postal": "693-0006",
    "address": "島根県出雲市白枝町420-1",
    "tel": "0853-24-7788",
    "is24Hours": true,
    "hasAtm": true,
    "hasDrug": true,
    "latitude": 35.3628857,
    "longitude": 132.7373591
  },
  {
    "code": "142",
    "name": "四日市南店",
    "postal": "510-0951",
    "address": "三重県四日市市小古曽東三丁目５番３３号",
    "tel": "059-348-5522",
    "is24Hours": true,
    "hasAtm": false,
    "hasDrug": true,
    "latitude": 34.9243997,
    "longitude": 136.587467
  },
  {
    "code": "143",
    "name": "東岐波店",
    "postal": "755-0241",
    "address": "山口県宇部市大字東岐波6687-1",
    "tel": "0836-59-2022",
    "is24Hours": true,
    "hasAtm": true,
    "hasDrug": false,
    "latitude": 34.000292,
    "longitude": 131.3495153
  },
  {
    "code": "144",
    "name": "寝屋川大成店",
    "postal": "572-0819",
    "address": "大阪府寝屋川市大成町12-23",
    "tel": "072-823-3500",
    "is24Hours": true,
    "hasAtm": true,
    "hasDrug": true,
    "latitude": 34.7511288,
    "longitude": 135.6248612
  },
  {
    "code": "145",
    "name": "西都店",
    "postal": "881-0003",
    "address": "宮崎県西都市大字右松1913-1",
    "tel": "0983-41-0616",
    "is24Hours": true,
    "hasAtm": true,
    "hasDrug": false,
    "latitude": 32.0991956,
    "longitude": 131.4072984
  },
  {
    "code": "146",
    "name": "隼人店",
    "postal": "899-5102",
    "address": "鹿児島県霧島市隼人町真孝480",
    "tel": "0995-44-6155",
    "is24Hours": true,
    "hasAtm": true,
    "hasDrug": true,
    "latitude": 31.723211,
    "longitude": 130.7321621
  },
  {
    "code": "147",
    "name": "大津店",
    "postal": "869-1235",
    "address": "熊本県菊池郡大津町室1399",
    "tel": "096-349-3111",
    "is24Hours": false,
    "hasAtm": true,
    "hasDrug": true,
    "latitude": 32.8869923,
    "longitude": 130.8508833
  },
  {
    "code": "148",
    "name": "鹿島店",
    "postal": "849-1303",
    "address": "佐賀県鹿島市大字森字水町77番地1",
    "tel": "0954-69-5555",
    "is24Hours": true,
    "hasAtm": false,
    "hasDrug": true,
    "latitude": 33.1231516,
    "longitude": 130.0960776
  },
  {
    "code": "149",
    "name": "久保店",
    "postal": "515-0044",
    "address": "三重県松阪市久保町1897-1",
    "tel": "0598-60-2255",
    "is24Hours": true,
    "hasAtm": true,
    "hasDrug": true,
    "latitude": 34.5455534,
    "longitude": 136.5257887
  },
  {
    "code": "150",
    "name": "阪南店",
    "postal": "599-0233",
    "address": "大阪府阪南市南山中193-1",
    "tel": "072-476-6187",
    "is24Hours": true,
    "hasAtm": false,
    "hasDrug": true,
    "latitude": 34.3301032,
    "longitude": 135.1904837
  },
  {
    "code": "151",
    "name": "時津店",
    "postal": "851-2108",
    "address": "長崎県西彼杵郡時津町日並郷3613",
    "tel": "095-813-2070",
    "is24Hours": true,
    "hasAtm": true,
    "hasDrug": false,
    "latitude": 32.8460389,
    "longitude": 129.831931
  },
  {
    "code": "152",
    "name": "叶店",
    "postal": "680-0874",
    "address": "鳥取県鳥取市叶154-1",
    "tel": "0857-51-7277",
    "is24Hours": true,
    "hasAtm": true,
    "hasDrug": true,
    "latitude": 35.4715763,
    "longitude": 134.2232825
  },
  {
    "code": "153",
    "name": "福智店",
    "postal": "822-1212",
    "address": "福岡県田川郡福智町弁城4238-1",
    "tel": "0947-22-5731",
    "is24Hours": true,
    "hasAtm": true,
    "hasDrug": true,
    "latitude": 33.6969248,
    "longitude": 130.7740071
  },
  {
    "code": "154",
    "name": "大道店",
    "postal": "870-0820",
    "address": "大分県大分市西大道一丁目1番9号",
    "tel": "097-554-5500",
    "is24Hours": true,
    "hasAtm": true,
    "hasDrug": true,
    "latitude": 33.231842,
    "longitude": 131.5968006
  },
  {
    "code": "155",
    "name": "明石西インター店",
    "postal": "674-0074",
    "address": "兵庫県明石市魚住町清水2464-1",
    "tel": "078-944-5557",
    "is24Hours": true,
    "hasAtm": true,
    "hasDrug": true,
    "latitude": 34.7204007,
    "longitude": 134.8959267
  },
  {
    "code": "156",
    "name": "恵庭島松店",
    "postal": "061-1355",
    "address": "北海道恵庭市島松寿町１丁目４番地１",
    "tel": "0123-36-1011",
    "is24Hours": true,
    "hasAtm": true,
    "hasDrug": true,
    "latitude": 42.9215966,
    "longitude": 141.5722416
  },
  {
    "code": "157",
    "name": "大田原店",
    "postal": "324-0062",
    "address": "栃木県大田原市中田原868-13",
    "tel": "0287-20-3113",
    "is24Hours": true,
    "hasAtm": true,
    "hasDrug": true,
    "latitude": 36.8783324,
    "longitude": 140.0304782
  },
  {
    "code": "158",
    "name": "行橋上津熊店",
    "postal": "824-0064",
    "address": "福岡県行橋市上津熊111番地1",
    "tel": "0930-26-0480",
    "is24Hours": false,
    "hasAtm": true,
    "hasDrug": false,
    "latitude": 33.7279866,
    "longitude": 130.9529574
  },
  {
    "code": "159",
    "name": "武雄富岡店",
    "postal": "843-0024",
    "address": "佐賀県武雄市武雄町大字富岡12431番地1",
    "tel": "0954-20-0800",
    "is24Hours": true,
    "hasAtm": true,
    "hasDrug": true,
    "latitude": 33.2010454,
    "longitude": 130.0319146
  },
  {
    "code": "160",
    "name": "アイランドシティ店",
    "postal": "813-0017",
    "address": "福岡県 福岡市東区 香椎照葉5丁目2-23",
    "tel": "092-661-8555",
    "is24Hours": true,
    "hasAtm": true,
    "hasDrug": true,
    "latitude": 33.6645948,
    "longitude": 130.4155696
  },
  {
    "code": "161",
    "name": "益田店",
    "postal": "698-0036",
    "address": "島根県益田市須子町32番7号",
    "tel": "0856-31-1052",
    "is24Hours": true,
    "hasAtm": true,
    "hasDrug": true,
    "latitude": 34.6739516,
    "longitude": 131.8264343
  },
  {
    "code": "162",
    "name": "柳川西蒲池店",
    "postal": "832-0005",
    "address": "福岡県柳川市西蒲池166-1",
    "tel": "0944-77-6800",
    "is24Hours": true,
    "hasAtm": false,
    "hasDrug": true,
    "latitude": 33.1785031,
    "longitude": 130.3968796
  },
  {
    "code": "163",
    "name": "宇城店",
    "postal": "869-0622",
    "address": "熊本県宇城市小川町西北小川 字溝越４９７番地１",
    "tel": "0964-25-5777",
    "is24Hours": true,
    "hasAtm": true,
    "hasDrug": false,
    "latitude": 32.5890814,
    "longitude": 130.7027934
  },
  {
    "code": "164",
    "name": "新富店",
    "postal": "889-1403",
    "address": "宮崎県児湯郡新富町大字上富田字井ノ木田3234番1",
    "tel": "0983-33-1115",
    "is24Hours": true,
    "hasAtm": true,
    "hasDrug": true,
    "latitude": 32.0588296,
    "longitude": 131.4783131
  },
  {
    "code": "165",
    "name": "湖南店",
    "postal": "520-3233",
    "address": "滋賀県湖南市柑子袋２５０番地５",
    "tel": "0748-72-7171",
    "is24Hours": true,
    "hasAtm": true,
    "hasDrug": true,
    "latitude": 35.0056442,
    "longitude": 136.0753664
  },
  {
    "code": "166",
    "name": "鹿屋店",
    "postal": "893-0023",
    "address": "鹿児島県鹿屋市笠之原町１９５０番１",
    "tel": "050-3852-0828",
    "is24Hours": true,
    "hasAtm": true,
    "hasDrug": true,
    "latitude": 31.3982948,
    "longitude": 130.8862722
  },
  {
    "code": "167",
    "name": "近江八幡店",
    "postal": "523-0083",
    "address": "滋賀県近江八幡市小船木町831番地１",
    "tel": "050-3852-0066",
    "is24Hours": true,
    "hasAtm": true,
    "hasDrug": true,
    "latitude": 35.1284487,
    "longitude": 136.0786441
  },
  {
    "code": "168",
    "name": "柳井店",
    "postal": "742-0021",
    "address": "山口県柳井市柳井1574-1",
    "tel": "050-3852-5375",
    "is24Hours": false,
    "hasAtm": true,
    "hasDrug": false,
    "latitude": 33.9582938,
    "longitude": 132.1273192
  },
  {
    "code": "169",
    "name": "上里店",
    "postal": "369-0306",
    "address": "埼玉県児玉郡上里町大字七本木2121番地2",
    "tel": "050-3852-0794",
    "is24Hours": true,
    "hasAtm": true,
    "hasDrug": true,
    "latitude": 36.2489619,
    "longitude": 139.1552195
  },
  {
    "code": "170",
    "name": "板倉店",
    "postal": "374-0112",
    "address": "群馬県邑楽郡板倉町朝日野3丁目12番地1",
    "tel": "0276-58-5193",
    "is24Hours": true,
    "hasAtm": true,
    "hasDrug": true,
    "latitude": 36.2184683,
    "longitude": 139.6435107
  },
  {
    "code": "171",
    "name": "新八代駅前店",
    "postal": "866-0824",
    "address": "熊本県八代市上日置町4522番地１",
    "tel": "0965-88-2614",
    "is24Hours": true,
    "hasAtm": true,
    "hasDrug": true,
    "latitude": 32.5189223,
    "longitude": 130.636089
  },
  {
    "code": "172",
    "name": "幸田店",
    "postal": "444-0124",
    "address": "愛知県額田郡幸田町大字深溝字小杉山104",
    "tel": "0564-56-8007",
    "is24Hours": true,
    "hasAtm": true,
    "hasDrug": true,
    "latitude": 34.8459171,
    "longitude": 137.1679946
  },
  {
    "code": "173",
    "name": "出水黄金店",
    "postal": "899-0125",
    "address": "鹿児島県出水市黄金町562",
    "tel": "0996-65-8170",
    "is24Hours": true,
    "hasAtm": false,
    "hasDrug": true,
    "latitude": 32.1032968,
    "longitude": 130.3406824
  },
  {
    "code": "174",
    "name": "小樽朝里店",
    "postal": "047-0152",
    "address": "北海道小樽市新光5丁目1番1号",
    "tel": "0134-51-5056",
    "is24Hours": true,
    "hasAtm": true,
    "hasDrug": true,
    "latitude": 43.165061,
    "longitude": 141.0464984
  },
  {
    "code": "175",
    "name": "養父店",
    "postal": "667-0024",
    "address": "兵庫県養父市八鹿町朝倉字上台１２６５－１",
    "tel": "079-662-0261",
    "is24Hours": true,
    "hasAtm": true,
    "hasDrug": true,
    "latitude": 35.3949851,
    "longitude": 134.7566461
  },
  {
    "code": "176",
    "name": "岐南八剣店",
    "postal": "501-6011",
    "address": "岐阜県羽島郡岐南町八剣北7丁目143",
    "tel": "058-259-6050",
    "is24Hours": true,
    "hasAtm": true,
    "hasDrug": true,
    "latitude": 35.3963854,
    "longitude": 136.7728432
  },
  {
    "code": "177",
    "name": "玉津店",
    "postal": "879-0606",
    "address": "大分県豊後高田市玉津1628番地",
    "tel": "0978-23-1133",
    "is24Hours": true,
    "hasAtm": true,
    "hasDrug": true,
    "latitude": 33.568277,
    "longitude": 131.4374668
  },
  {
    "code": "178",
    "name": "屯田店",
    "postal": "002-0859",
    "address": "北海道札幌市北区屯田9条 12丁目1番1号",
    "tel": "011-775-5251",
    "is24Hours": true,
    "hasAtm": true,
    "hasDrug": false,
    "latitude": 43.1439669,
    "longitude": 141.3160352
  },
  {
    "code": "179",
    "name": "唐津店",
    "postal": "847-0011",
    "address": "佐賀県唐津市栄町2579番地1",
    "tel": "0955-88-2127",
    "is24Hours": false,
    "hasAtm": true,
    "hasDrug": false,
    "latitude": 33.4466764,
    "longitude": 129.96943
  },
  {
    "code": "180",
    "name": "伊勢店",
    "postal": "519-0505",
    "address": "三重県伊勢市小俣町本町３４１－２６１",
    "tel": "0596-20-5110",
    "is24Hours": true,
    "hasAtm": true,
    "hasDrug": true,
    "latitude": 34.501486,
    "longitude": 136.6658173
  },
  {
    "code": "181",
    "name": "雲南店",
    "postal": "699-1106",
    "address": "島根県雲南市加茂町加茂中２－１",
    "tel": "0854-49-9234",
    "is24Hours": true,
    "hasAtm": true,
    "hasDrug": false,
    "latitude": 35.3492683,
    "longitude": 132.9000852
  },
  {
    "code": "182",
    "name": "千代田店",
    "postal": "842-0068",
    "address": "佐賀県神埼市千代田町下板86番1",
    "tel": "0952-34-6300",
    "is24Hours": true,
    "hasAtm": true,
    "hasDrug": true,
    "latitude": 33.2835779,
    "longitude": 130.3998818
  },
  {
    "code": "183",
    "name": "敷戸店",
    "postal": "870-1106",
    "address": "大分県大分市敷戸台一丁目１番８号",
    "tel": "097-504-7001",
    "is24Hours": true,
    "hasAtm": true,
    "hasDrug": true,
    "latitude": 33.1890287,
    "longitude": 131.6142742
  },
  {
    "code": "184",
    "name": "間々田店",
    "postal": "329-0207",
    "address": "栃木県小山市美しが丘1丁目19番3",
    "tel": "0285-41-2500",
    "is24Hours": true,
    "hasAtm": false,
    "hasDrug": true,
    "latitude": 36.2666217,
    "longitude": 139.7717974
  },
  {
    "code": "185",
    "name": "大町店",
    "postal": "849-2101",
    "address": "佐賀県杵島郡大町町大町78番地1",
    "tel": "0952-71-4040",
    "is24Hours": true,
    "hasAtm": false,
    "hasDrug": true,
    "latitude": 33.217007,
    "longitude": 130.1318236
  },
  {
    "code": "186",
    "name": "山鹿店",
    "postal": "861-0501",
    "address": "熊本県山鹿市山鹿821番地3",
    "tel": "0968-32-0660",
    "is24Hours": false,
    "hasAtm": true,
    "hasDrug": true,
    "latitude": 33.0180816,
    "longitude": 130.6921014
  },
  {
    "code": "187",
    "name": "三田店",
    "postal": "669-1324",
    "address": "兵庫県三田市ゆりのき台3丁目26番1",
    "tel": "079-553-5150",
    "is24Hours": true,
    "hasAtm": true,
    "hasDrug": true,
    "latitude": 34.916832,
    "longitude": 135.1701913
  },
  {
    "code": "188",
    "name": "箕面森町店",
    "postal": "563-0256",
    "address": "大阪府箕面市森町北1丁目2番55号",
    "tel": "072-733-3030",
    "is24Hours": true,
    "hasAtm": true,
    "hasDrug": false,
    "latitude": 34.8930168,
    "longitude": 135.4551172
  },
  {
    "code": "189",
    "name": "日南店",
    "postal": "887-0015",
    "address": "宮崎県日南市大字平野字深坪2559-1",
    "tel": "0987-32-1606",
    "is24Hours": true,
    "hasAtm": true,
    "hasDrug": true,
    "latitude": 31.595844,
    "longitude": 131.3893413
  },
  {
    "code": "190",
    "name": "月寒店",
    "postal": "062-0053",
    "address": "北海道札幌市豊平区月寒東三条11丁目1-21",
    "tel": "011-858-7071",
    "is24Hours": true,
    "hasAtm": true,
    "hasDrug": true,
    "latitude": 43.0287917,
    "longitude": 141.4067241
  },
  {
    "code": "191",
    "name": "十和田店",
    "postal": "034-0023",
    "address": "青森県十和田市東十三番町39番4号",
    "tel": "0176-21-2135",
    "is24Hours": true,
    "hasAtm": true,
    "hasDrug": true,
    "latitude": 40.6176147,
    "longitude": 141.2269067
  },
  {
    "code": "192",
    "name": "嬉野店",
    "postal": "843-0301",
    "address": "佐賀県嬉野市嬉野町大字下宿甲182番地",
    "tel": "0954-20-4008",
    "is24Hours": false,
    "hasAtm": true,
    "hasDrug": true,
    "latitude": 33.109169,
    "longitude": 129.9981164
  },
  {
    "code": "193",
    "name": "橿原店",
    "postal": "634-0842",
    "address": "奈良県橿原市豊田町275番の１",
    "tel": "0744-20-0650",
    "is24Hours": true,
    "hasAtm": true,
    "hasDrug": true,
    "latitude": 34.5219993,
    "longitude": 135.7821588
  },
  {
    "code": "194",
    "name": "都農店",
    "postal": "889-1201",
    "address": "宮崎県児湯郡都農町大字川北字上助代5474番1",
    "tel": "0983-21-2411",
    "is24Hours": true,
    "hasAtm": true,
    "hasDrug": false,
    "latitude": 32.254973,
    "longitude": 131.5512623
  },
  {
    "code": "195",
    "name": "滝沢店",
    "postal": "020-0632",
    "address": "岩手県滝沢市牧野林865-4",
    "tel": "019-699-2900",
    "is24Hours": true,
    "hasAtm": true,
    "hasDrug": true,
    "latitude": 39.7511405,
    "longitude": 141.1053705
  },
  {
    "code": "196",
    "name": "桜井粟殿店",
    "postal": "633-0062",
    "address": "奈良県桜井市大字粟殿1017番9",
    "tel": "0744-49-2235",
    "is24Hours": true,
    "hasAtm": true,
    "hasDrug": true,
    "latitude": 34.5177243,
    "longitude": 135.8450686
  },
  {
    "code": "197",
    "name": "御所店",
    "postal": "639-2242",
    "address": "奈良県御所市大字本馬33番1",
    "tel": "0745-64-1066",
    "is24Hours": true,
    "hasAtm": true,
    "hasDrug": true,
    "latitude": 34.4646623,
    "longitude": 135.7487154
  },
  {
    "code": "198",
    "name": "桂川店",
    "postal": "820-0606",
    "address": "福岡県嘉穂郡桂川町大字土居815-1",
    "tel": "0948-20-2121",
    "is24Hours": true,
    "hasAtm": true,
    "hasDrug": true,
    "latitude": 33.5860023,
    "longitude": 130.6743249
  },
  {
    "code": "199",
    "name": "関店",
    "postal": "501-3963",
    "address": "岐阜県関市片倉町１番３",
    "tel": "0575-21-5878",
    "is24Hours": true,
    "hasAtm": true,
    "hasDrug": true,
    "latitude": 35.482307,
    "longitude": 136.9092903
  },
  {
    "code": "200",
    "name": "東水巻店",
    "postal": "807-0048",
    "address": "福岡県遠賀郡水巻町吉田南５丁目５－１",
    "tel": "093-203-5030",
    "is24Hours": true,
    "hasAtm": true,
    "hasDrug": true,
    "latitude": 33.8400802,
    "longitude": 130.7089624
  },
  {
    "code": "201",
    "name": "須惠店",
    "postal": "811-2221",
    "address": "福岡県糟屋郡須恵町旅石２２７番３",
    "tel": "092-937-5020",
    "is24Hours": true,
    "hasAtm": true,
    "hasDrug": false,
    "latitude": 33.592227,
    "longitude": 130.4946959
  },
  {
    "code": "202",
    "name": "長府店",
    "postal": "752-0928",
    "address": "山口県下関市長府才川二丁目2-40",
    "tel": "083-249-2233",
    "is24Hours": true,
    "hasAtm": false,
    "hasDrug": true,
    "latitude": 34.0232593,
    "longitude": 131.0032188
  },
  {
    "code": "203",
    "name": "帯広東店",
    "postal": "080-0805",
    "address": "北海道帯広市東五条南３丁目１２番地１",
    "tel": "0155-20-6660",
    "is24Hours": false,
    "hasAtm": true,
    "hasDrug": true,
    "latitude": 42.929103,
    "longitude": 143.2100843
  },
  {
    "code": "204",
    "name": "みえ朝日店",
    "postal": "510-8102",
    "address": "三重県三重郡朝日町小向52-1",
    "tel": "059-376-0303",
    "is24Hours": true,
    "hasAtm": true,
    "hasDrug": true,
    "latitude": 35.0305463,
    "longitude": 136.6681944
  },
  {
    "code": "205",
    "name": "日向日知屋店",
    "postal": "883-0062",
    "address": "宮崎県日向市大字日知屋字加賀側3389-1",
    "tel": "0982-55-5101",
    "is24Hours": true,
    "hasAtm": true,
    "hasDrug": true,
    "latitude": 32.4284158,
    "longitude": 131.6490797
  },
  {
    "code": "206",
    "name": "天理店",
    "postal": "632-0083",
    "address": "奈良県天理市稲葉町87番地",
    "tel": "0743-68-3674",
    "is24Hours": true,
    "hasAtm": true,
    "hasDrug": true,
    "latitude": 34.5934867,
    "longitude": 135.7981958
  },
  {
    "code": "207",
    "name": "富田林店",
    "postal": "584-0048",
    "address": "大阪府富田林市西板持町4丁目76",
    "tel": "0721-30-3195",
    "is24Hours": true,
    "hasAtm": true,
    "hasDrug": true,
    "latitude": 34.4893914,
    "longitude": 135.5982763
  },
  {
    "code": "208",
    "name": "苫小牧西店",
    "postal": "059-1275",
    "address": "北海道苫小牧市字錦岡５３番地１",
    "tel": "0144-61-5020",
    "is24Hours": true,
    "hasAtm": true,
    "hasDrug": true,
    "latitude": 42.6088132,
    "longitude": 141.5069196
  },
  {
    "code": "209",
    "name": "日向店",
    "postal": "883-0043",
    "address": "宮崎県日向市 都町10754-11",
    "tel": "0982-55-5015",
    "is24Hours": true,
    "hasAtm": true,
    "hasDrug": false,
    "latitude": 32.427596,
    "longitude": 131.6348055
  },
  {
    "code": "210",
    "name": "今宿店",
    "postal": "819-0167",
    "address": "福岡県福岡市 西区 今宿3丁目 4番36号",
    "tel": "092-805-3199",
    "is24Hours": true,
    "hasAtm": true,
    "hasDrug": true,
    "latitude": 33.581198,
    "longitude": 130.2652523
  },
  {
    "code": "211",
    "name": "花巻店",
    "postal": "025-0072",
    "address": "岩手県花巻市四日町 3丁目21-28",
    "tel": "0198-22-1182",
    "is24Hours": true,
    "hasAtm": true,
    "hasDrug": true,
    "latitude": 39.401915,
    "longitude": 141.1203462
  },
  {
    "code": "212",
    "name": "かすみがうら店",
    "postal": "315-0052",
    "address": "茨城県かすみがうら市下稲吉字西山２６５４番地１",
    "tel": "0299-59-0533",
    "is24Hours": true,
    "hasAtm": true,
    "hasDrug": true,
    "latitude": 36.132418,
    "longitude": 140.225091
  },
  {
    "code": "213",
    "name": "春日桜ケ丘店",
    "postal": "816-0872",
    "address": "福岡県春日市桜ケ丘四丁目49番",
    "tel": "092-915-0921",
    "is24Hours": true,
    "hasAtm": true,
    "hasDrug": true,
    "latitude": 33.5428937,
    "longitude": 130.4493756
  },
  {
    "code": "214",
    "name": "オーキッドパーク店",
    "postal": "500-8891",
    "address": "岐阜県岐阜市香蘭1丁目12番地",
    "tel": "058-255-2650",
    "is24Hours": true,
    "hasAtm": true,
    "hasDrug": true,
    "latitude": 35.4108485,
    "longitude": 136.7441856
  },
  {
    "code": "215",
    "name": "曰佐店",
    "postal": "811-1313",
    "address": "福岡県福岡市南区曰佐4丁目24-1",
    "tel": "092-588-6234",
    "is24Hours": true,
    "hasAtm": false,
    "hasDrug": false,
    "latitude": 33.5386622,
    "longitude": 130.437968
  },
  {
    "code": "216",
    "name": "おいらせ店",
    "postal": "039-2185",
    "address": "青森県上北郡おいらせ町上久保63番10",
    "tel": "0176-51-7337",
    "is24Hours": true,
    "hasAtm": true,
    "hasDrug": true,
    "latitude": 40.650645,
    "longitude": 141.3722448
  },
  {
    "code": "217",
    "name": "上熊本店",
    "postal": "860-0079",
    "address": "熊本県 熊本市西区 上熊本三丁目 8番1",
    "tel": "096-326-3010",
    "is24Hours": true,
    "hasAtm": true,
    "hasDrug": false,
    "latitude": 32.8227134,
    "longitude": 130.6981222
  },
  {
    "code": "218",
    "name": "名古屋茶屋店",
    "postal": "455-0857",
    "address": "愛知県名古屋市港区秋葉2丁目74番地1",
    "tel": "052-304-8400",
    "is24Hours": true,
    "hasAtm": true,
    "hasDrug": true,
    "latitude": 35.1055893,
    "longitude": 136.8225353
  },
  {
    "code": "219",
    "name": "大野城まどかぴあ前店",
    "postal": "816-0932",
    "address": "福岡県大野城市瓦田5丁目11-30",
    "tel": "092-404-0717",
    "is24Hours": true,
    "hasAtm": true,
    "hasDrug": true,
    "latitude": 33.5361534,
    "longitude": 130.4803488
  },
  {
    "code": "220",
    "name": "宮田店",
    "postal": "823-0011",
    "address": "福岡県宮若市宮田109番1",
    "tel": "0949-52-6736",
    "is24Hours": true,
    "hasAtm": true,
    "hasDrug": true,
    "latitude": 33.72145,
    "longitude": 130.6621926
  },
  {
    "code": "221",
    "name": "筑紫野店",
    "postal": "818-0059",
    "address": "福岡県筑紫野市塔原東５丁目11-5",
    "tel": "092-403-0230",
    "is24Hours": false,
    "hasAtm": true,
    "hasDrug": false,
    "latitude": 33.4981854,
    "longitude": 130.5043431
  }
]
